[
  {
    "nom": "Universidad. Rutas 1- 3 y 5",
    "lat": 19.3241828,
    "lon": -99.1747766,
    "rut": [
      1,
      3,
      5
    ],
    "estDes": [
      {
        "des": 3,
        "dis": 493.59497,
        "rutDes": [
          1,
          5
        ]
      },
      {
        "des": 17,
        "dis": 258.9742,    
        "rutDes": [
          3
        ]
      }
    ]
  },
  {
    "nom": "Universidad. Rutas 2 y 4",
    "lat": 19.3247017,
    "lon": -99.1752134,
    "rut": [
      2,
      4
    ],
    "estDes": [
      {
        "des": 18,
        "dis": 269.87567,
        "rutDes": [
          2,
          4
        ]
      }
    ]
  },
  {
    "nom": "CENDI",
    "lat": 19.3286387,
    "lon": -99.1749521,
    "rut": [
      1,
      5
    ],
    "estDes": [
      {
        "des": 4,
        "dis": 540.10156,
        "rutDes": [
          1,
          6
        ]
      }
    ]
  },
  {
    "nom": "Psiquiatría y Salud Mental",
    "lat": 19.3322519,
    "lon": -99.1784061,
    "rut": [
      1,
      5
    ],
    "estDes": [
      {
        "des": 5,
        "dis": 287.0824,
        "rutDes": [
          1
        ]
      },
      {
        "des": 49,
        "dis": 278.87686,
        "rutDes": [
          5
        ]
      }
    ]
  },
  {
    "nom": "Química",
    "lat": 19.3308839,
    "lon": -99.1807271,
    "rut": [
      1,
      7
    ],
    "estDes": [
      {
        "des": 6,
        "dis": 275.3146,
        "rutDes": [
          1,
          7
        ]
      }
    ]
  },
  {
    "nom": "CELE",
    "lat": 19.3307869,
    "lon": -99.1833451,
    "rut": [
      1,
      7
    ],
    "estDes": [
      {
        "des": 7,
        "dis": 125.48001,
        "rutDes": [
          1,
          7
        ]
      }
    ]
  },
  {
    "nom": "Ingeniería",
    "lat": 19.3307655,
    "lon": -99.184539,
    "rut": [
      1,
      7
    ],
    "estDes": [
      {
        "des": 8,
        "dis": 243.071,
        "rutDes": [
          1,
          7
        ]
      }
    ]
  },
  {
    "nom": "Arquitectura",
    "lat": 19.3305791,
    "lon": -99.1868438,
    "rut": [
      1,
      7
    ],
    "estDes": [
      {
        "des": 9,
        "dis": 356.55792,
        "rutDes": [
          1
        ]
      },
      {
        "des": 30,
        "dis": 393.22906,
        "rutDes": [
          7
        ]
      }
    ]
  },
  {
    "nom": "Rectoría",
    "lat": 19.3327448,
    "lon": -99.1893555,
    "rut": [
      1,
      9
    ],
    "estDes": [
      {
        "des": 10,
        "dis": 192.05586,
        "rutDes": [
          1,
          9
        ]
      }
    ]
  },
  {
    "nom": "Psicología",
    "lat": 19.3344751,
    "lon": -99.1892213,
    "rut": [
      1,
      5,
      7,
      9
    ],
    "estDes": [
      {
        "des": 11,
        "dis": 147.84258,
        "rutDes": [
          1,
          5,
          7,
          9
        ]
      }
    ]
  },
  {
    "nom": "Filosofía y Letras",
    "lat": 19.334658,
    "lon": -99.1878276,
    "rut": [
      1,
      5,
      7,
      9
    ],
    "estDes": [
      {
        "des": 12,
        "dis": 312.24078,
        "rutDes": [
          1,
          5,
          7,
          9
        ]
      }
    ]
  },
  {
    "nom": "Derecho",
    "lat": 19.3349877,
    "lon": -99.18487650000002,
    "rut": [
      1,
      5,
      7,
      9
    ],
    "estDes": [
      {
        "des": 13,
        "dis": 195.58517,
        "rutDes": [
          1,
          5,
          7,
          9
        ]
      }
    ]
  },
  {
    "nom": "Economía",
    "lat": 19.335193,
    "lon": -99.1830278,
    "rut": [
      1,
      5,
      7,
      9
    ],
    "estDes": [
      {
        "des": 14,
        "dis": 242.92274,
        "rutDes": [
          1,
          5,
          7,
          9
        ]
      }
    ]
  },
  {
    "nom": "Odontología",
    "lat": 19.3347087,
    "lon": -99.180773,
    "rut": [
      1,
      5,
      7,
      9
    ],
    "estDes": [
      {
        "des": 15,
        "dis": 281.1957,
        "rutDes": [
          1,
          5,
          7,
          9
        ]
      }
    ]
  },
  {
    "nom": "Medicina",
    "lat": 19.3329735,
    "lon": -99.1788186,
    "rut": [
      1,
      5,
      7,
      9
    ],
    "estDes": [
      {
        "des": 16,
        "dis": 471.78067,
        "rutDes": [
          1,
          5
        ]
      },
      {
        "des": 5,
        "dis": 306.14383,
        "rutDes": [
          7
        ]
      },
      {
        "des": 22,
        "dis": 452.41495,
        "rutDes": [
          9
        ]
      }
    ]
  },
  {
    "nom": "Veterinaria",
    "lat": 19.3296033,
    "lon": -99.1760704,
    "rut": [
      1,
      5
    ],
    "estDes": [
      {
        "des": 17,
        "dis": 357.54883,
        "rutDes": [
          1,
          5
        ]
      }
    ]
  },
  {
    "nom": "Instituto Geofísica",
    "lat": 19.3264971,
    "lon": -99.1751374,
    "rut": [
      1,
      5
    ],
    "estDes": [
      {
        "des": 18,
        "dis": 430.4309,
        "rutDes": [
          1,
          5
        ]
      }
    ]
  },
  {
    "nom": "Química Conjuntos D y E",
    "lat": 19.32312,
    "lon": -99.1771677,
    "rut": [
      1,
      2,
      3,
      4,
      5
    ],
    "estDes": [
      {
        "des": 1,
        "dis": 277.45105,
        "rutDes": [
          1,
          5
        ]
      },
      {
        "des": 19,
        "dis": 210.62302,
        "rutDes": [
          2,
          4
        ]
      },
      {
        "des": 60,
        "dis": 288.6913,
        "rutDes": [
          3
        ]
      }
    ]
  },
  {
    "nom": "Ciencias Profesores",
    "lat": 19.3226731,
    "lon": -99.17911590000001,
    "rut": [
      2,
      4
    ],
    "estDes": [
      {
        "des": 20,
        "dis": 368.44492,
        "rutDes": [
          2,
          4
        ]
      }
    ]
  },
  {
    "nom": "Ciencias Alumnos",
    "lat": 19.3248964,
    "lon": -99.1817251,
    "rut": [
      2,
      4,
      6
    ],
    "estDes": [
      {
        "des": 21,
        "dis": 477.36557,
        "rutDes": [
          6
        ]
      },
      {
        "des": 25,
        "dis": 355.1142,
        "rutDes": [
          2,
          4
        ]
      }
    ]
  },
  {
    "nom": "Ciencias del Mar",
    "lat": 19.3285126,
    "lon": -99.1792502,
    "rut": [
      6,
      12,
      13
    ],
    "estDes": [
      {
        "des": 22,
        "dis": 85.93639,
        "rutDes": [
          6
        ]
      },
      {
        "des": 27,
        "dis": 1010.9019,
        "rutDes": [
          12
        ]
      },
      {
        "des": 60,
        "dis": 923.56793,
        "rutDes": [
          13
        ]
      }
    ]
  },
  {
    "nom": "Invernadero",
    "lat": 19.3290118,
    "lon": -99.1798765,
    "rut": [
      6,
      8,
      9
    ],
    "estDes": [
      {
        "des": 23,
        "dis": 254.3683,
        "rutDes": [
          6,
          8,
          9
        ]
      }
    ]
  },
  {
    "nom": "Posgrado de Ingeniería",
    "lat": 19.327005,
    "lon": -99.1810557,
    "rut": [
      6,
      8,
      9
    ],
    "estDes": [
      {
        "des": 24,
        "dis": 197.59184,
        "rutDes": [
          6,
          8,
          9
        ]
      }
    ]
  },
  {
    "nom": "Anexo de Ingeniería",
    "lat": 19.325571,
    "lon": -99.1821754,
    "rut": [
      6,
      8,
      9
    ],
    "estDes": [
      {
        "des": 25,
        "dis": 353.01385,
        "rutDes": [
          6,
          8,
          9
        ]
      }
    ]
  },
  {
    "nom": "Contaduría y Administración",
    "lat": 19.3235997,
    "lon": -99.184816,
    "rut": [
      2,
      4,
      6,
      8,
      9
    ],
    "estDes": [
      {
        "des": 26,
        "dis": 193.00777,
        "rutDes": [
          2,
          4,
          6,
          8,
          9
        ]
      }
    ]
  },
  {
    "nom": "Trabajo Social",
    "lat": 19.3232759,
    "lon": -99.1866207,
    "rut": [
      2,
      4,
      6,
      8,
      9
    ],
    "estDes": [
      {
        "des": 27,
        "dis": 149.87805,
        "rutDes": [
          2,
          4,
          6,
          8,
          9
        ]
      }
    ]
  },
  {
    "nom": "Metrobús CU. Rutas 2-4-6-7-8-11 y 12",
    "lat": 19.3241558,
    "lon": -99.1877047,
    "rut": [
      2,
      4,
      6,
      8,
      9,
      11,
      12
    ],
    "estDes": [
      {
        "des": 28,
        "dis": 299.7141,
        "rutDes": [
          4,
          6,
          8,
          9,
          11
        ]
      },
      {
        "des": 45,
        "dis": 56.443424,
        "rutDes": [
          2,
          12
        ]
      }
    ]
  },
  {
    "nom": "Estadio de Prácticas",
    "lat": 19.3268399,
    "lon": -99.1880792,
    "rut": [
      4,
      6,
      8,
      9,
      11
    ],
    "estDes": [
      {
        "des": 29,
        "dis": 403.89777,
        "rutDes": [
          6,
          8,
          9,
          11
        ]
      },
      {
        "des": 37,
        "dis": 612.5437,
        "rutDes": [
          4
        ]
      }
    ]
  },
  {
    "nom": "MUCA",
    "lat": 19.3303775,
    "lon": -99.1890205,
    "rut": [
      6,
      8,
      9,
      11
    ],
    "estDes": [
      {
        "des": 9,
        "dis": 264.40466,
        "rutDes": [
          9
        ]
      },
      {
        "des": 30,
        "dis": 163.9595,
        "rutDes": [
          6,
          8,
          11
        ]
      }
    ]
  },
  {
    "nom": "Estacionamiento 8",
    "lat": 19.3300768,
    "lon": -99.19054830000002,
    "rut": [
      6,
      7,
      8,
      11
    ],
    "estDes": [
      {
        "des": 31,
        "dis": 219.0285,
        "rutDes": [
          6,
          7,
          8,
          11
        ]
      }
    ]
  },
  {
    "nom": "Estacionamiento 7",
    "lat": 19.3291745,
    "lon": -99.1924033,
    "rut": [
      6,
      7,
      8,
      11
    ],
    "estDes": [
      {
        "des": 32,
        "dis": 161.66966,
        "rutDes": [
          6,
          7,
          8
        ]
      },
      {
        "des": 56,
        "dis": 574.75195,
        "rutDes": [
          11
        ]
      }
    ]
  },
  {
    "nom": "Estacionamiento 6",
    "lat": 19.3302918,
    "lon": -99.1933941,
    "rut": [
      6,
      7,
      8
    ],
    "estDes": [
      {
        "des": 33,
        "dis": 133.82974,
        "rutDes": [
          6,
          7,
          8
        ]
      }
    ]
  },
  {
    "nom": "Estacionamiento 4",
    "lat": 19.3312598,
    "lon": -99.1941571,
    "rut": [
      6,
      7,
      8
    ],
    "estDes": [
      {
        "des": 34,
        "dis": 155.80658,
        "rutDes": [
          6,
          7,
          8
        ]
      }
    ]
  },
  {
    "nom": "Estacionamiento 3",
    "lat": 19.3326012,
    "lon": -99.19460620000001,
    "rut": [
      6,
      7,
      8
    ],
    "estDes": [
      {
        "des": 35,
        "dis": 172.05952,
        "rutDes": [
          6,
          7,
          8
        ]
      }
    ]
  },
  {
    "nom": "Estacionamiento 2",
    "lat": 19.3334279,
    "lon": -99.1932196,
    "rut": [
      6,
      7,
      8
    ],
    "estDes": [
      {
        "des": 36,
        "dis": 267.84677,
        "rutDes": [
          6,
          7,
          8
        ]
      }
    ]
  },
  {
    "nom": "Estacionamiento 1",
    "lat": 19.333518,
    "lon": -99.1906724,
    "rut": [
      6,
      7,
      8
    ],
    "estDes": [
      {
        "des": 10,
        "dis": 185.67584,
        "rutDes": [
          7
        ]
      },
      {
        "des": 37,
        "dis": 1129.5836,
        "rutDes": [
          6,
          8
        ]
      }
    ]
  },
  {
    "nom": "Campos de Futbol I",
    "lat": 19.323502,
    "lon": -99.1927283,
    "rut": [
      4,
      6,
      10
    ],
    "estDes": [
      {
        "des": 38,
        "dis": 374.6695,
        "rutDes": [
          6
        ]
      },
      {
        "des": 41,
        "dis": 245.17917,
        "rutDes": [
          4,
          10
        ]
      }
    ]
  },
  {
    "nom": "Pista de Cenlentamiento. Ruta 6",
    "lat": 19.3264899,
    "lon": -99.19440330000002,
    "rut": [
      6
    ],
    "estDes": [
      {
        "des": 39,
        "dis": 50.176395,
        "rutDes": [
          6
        ]
      }
    ]
  },
  {
    "nom": "Pista de Calentamiento. Rutas 6 y 11",
    "lat": 19.3263736,
    "lon": -99.1948648,
    "rut": [
      6,
      11
    ],
    "estDes": [
      {
        "des": 40,
        "dis": 213.57141,
        "rutDes": [
          6,
          11
        ]
      }
    ]
  },
  {
    "nom": "PUMITAS",
    "lat": 19.324445,
    "lon": -99.1949215,
    "rut": [
      6,
      11
    ],
    "estDes": [
      {
        "des": 41,
        "dis": 398.7951,
        "rutDes": [
          6,
          11
        ]
      }
    ]
  },
  {
    "nom": "Jardín Botánico",
    "lat": 19.3213088,
    "lon": -99.193054,
    "rut": [
      4,
      6,
      10,
      11
    ],
    "estDes": [
      {
        "des": 42,
        "dis": 173.44833,
        "rutDes": [
          4,
          6,
          10,
          11
        ]
      }
    ]
  },
  {
    "nom": "Campos de Fútbol II",
    "lat": 19.3227269,
    "lon": -99.192352,
    "rut": [
      4,
      6,
      10,
      11
    ],
    "estDes": [
      {
        "des": 43,
        "dis": 277.93436,
        "rutDes": [
          6,
          10
        ]
      },
      {
        "des": 45,
        "dis": 471.38132,
        "rutDes": [
          4,
          11
        ]
      }
    ]
  },
  {
    "nom": "Investigaciones Biomédicas",
    "lat": 19.323134,
    "lon": -99.1897422,
    "rut": [
      6,
      10
    ],
    "estDes": [
      {
        "des": 44,
        "dis": 124.75871,
        "rutDes": [
          6
        ]
      },
      {
        "des": 63,
        "dis": 917.2289,
        "rutDes": [
          10
        ]
      }
    ]
  },
  {
    "nom": "Metrobus CU. Rutas 6 y 10",
    "lat": 19.3242208,
    "lon": -99.1894278,
    "rut": [
      6,
      10
    ],
    "estDes": [
      {
        "des": 37,
        "dis": 355.8483,
        "rutDes": [
          10
        ]
      },
      {
        "des": 45,
        "dis": 160.65295,
        "rutDes": [
          6
        ]
      }
    ]
  },
  {
    "nom": "Metrobús CU. Rutas 2-4-6-11 y 12",
    "lat": 19.3237245,
    "lon": -99.1879912,
    "rut": [
      2,
      4,
      6,
      11,
      12
    ],
    "estDes": [
      {
        "des": 27,
        "dis": 56.443424,
        "rutDes": [
          11
        ]
      },
      {
        "des": 46,
        "dis": 184.56982,
        "rutDes": [
          2,
          4,
          6
        ]
      },
      {
        "des": 86,
        "dis": 839.2756,
        "rutDes": [
          12
        ]
      }
    ]
  },
  {
    "nom": "Educación a Distancia",
    "lat": 19.3224201,
    "lon": -99.1868972,
    "rut": [
      2,
      4,
      6
    ],
    "estDes": [
      {
        "des": 47,
        "dis": 234.79425,
        "rutDes": [
          2,
          4,
          6
        ]
      }
    ]
  },
  {
    "nom": "Cómputo Académico",
    "lat": 19.3227658,
    "lon": -99.1846928,
    "rut": [
      2,
      4,
      6
    ],
    "estDes": [
      {
        "des": 20,
        "dis": 391.00494,
        "rutDes": [
          6
        ]
      },
      {
        "des": 48,
        "dis": 590.01495,
        "rutDes": [
          2,
          4
        ]
      }
    ]
  },
  {
    "nom": "Ciencias Profesores (regreso)",
    "lat": 19.322201,
    "lon": -99.17910990000001,
    "rut": [
      2,
      4
    ],
    "estDes": [
      {
        "des": 2,
        "dis": 494.2615,
        "rutDes": [
          2,
          4
        ]
      }
    ]
  },
  {
    "nom": "Medicina. Rutas 5",
    "lat": 19.3345056,
    "lon": -99.1795922,
    "rut": [
      5
    ],
    "estDes": [
      {
        "des": 50,
        "dis": 137.85,
        "rutDes": [
          5
        ]
      }
    ]
  },
  {
    "nom": "Odontología. Rutas 5",
    "lat": 19.3349181,
    "lon": -99.18083,
    "rut": [
      5
    ],
    "estDes": [
      {
        "des": 51,
        "dis": 299.12628,
        "rutDes": [
          5
        ]
      }
    ]
  },
  {
    "nom": "Economía. Rutas 5",
    "lat": 19.3358201,
    "lon": -99.18351340000001,
    "rut": [
      5
    ],
    "estDes": [
      {
        "des": 52,
        "dis": 237.46118,
        "rutDes": [
          5
        ]
      }
    ]
  },
  {
    "nom": "Avenida Universidad. Rutas 5",
    "lat": 19.3361398,
    "lon": -99.185748,
    "rut": [
      5
    ],
    "estDes": [
      {
        "des": 53,
        "dis": 134.4272,
        "rutDes": [
          5
        ]
      }
    ]
  },
  {
    "nom": "Derecho. Rutas 5",
    "lat": 19.3354129,
    "lon": -99.1847232,
    "rut": [
      5
    ],
    "estDes": [
      {
        "des": 54,
        "dis": 290.59967,
        "rutDes": [
          5
        ]
      }
    ]
  },
  {
    "nom": "Filosofía y Letras. Rutas 5",
    "lat": 19.3349586,
    "lon": -99.187447,
    "rut": [
      5
    ],
    "estDes": [
      {
        "des": 55,
        "dis": 184.84224,
        "rutDes": [
          5
        ]
      }
    ]
  },
  {
    "nom": "Psicología. Rutas 5",
    "lat": 19.3346777,
    "lon": -99.189181,
    "rut": [
      5
    ],
    "estDes": [
      {
        "des": 10,
        "dis": 22.823332,
        "rutDes": [
          5
        ]
      }
    ]
  },
  {
    "nom": "Relaciones Laborales",
    "lat": 19.3341961,
    "lon": -99.1910129,
    "rut": [
      11
    ],
    "estDes": [
      {
        "des": 57,
        "dis": 223.71794,
        "rutDes": [
          11
        ]
      }
    ]
  },
  {
    "nom": "Obras y Relaciones",
    "lat": 19.335081,
    "lon": -99.192927,
    "rut": [
      11
    ],
    "estDes": [
      {
        "des": 58,
        "dis": 291.11395,
        "rutDes": [
          11
        ]
      }
    ]
  },
  {
    "nom": "AAPAUNAM",
    "lat": 19.3343618,
    "lon": -99.1955918,
    "rut": [
      11
    ],
    "estDes": [
      {
        "des": 59,
        "dis": 338.99503,
        "rutDes": [
          11
        ]
      }
    ]
  },
  {
    "nom": "UDUAL",
    "lat": 19.3313014,
    "lon": -99.1954754,
    "rut": [
      11
    ],
    "estDes": [
      {
        "des": 39,
        "dis": 549.24866,
        "rutDes": [
          11
        ]
      }
    ]
  },
  {
    "nom": "Tienda UNAM I",
    "lat": 19.3205967,
    "lon": -99.1764734,
    "rut": [
      3,
      13
    ],
    "estDes": [
      {
        "des": 61,
        "dis": 313.9799,
        "rutDes": [
          3
        ]
      },
      {
        "des": 80,
        "dis": 74.63028,
        "rutDes": [
          13
        ]
      }
    ]
  },
  {
    "nom": "Ciencias Políticas",
    "lat": 19.3177603,
    "lon": -99.1764841,
    "rut": [
      3
    ],
    "estDes": [
      {
        "des": 62,
        "dis": 445.96545,
        "rutDes": [
          3
        ]
      }
    ]
  },
  {
    "nom": "Investigaciones Jurídicas I",
    "lat": 19.3172617,
    "lon": -99.1806951,
    "rut": [
      3,
      10
    ],
    "estDes": [
      {
        "des": 44,
        "dis": 1198.1724,
        "rutDes": [
          10
        ]
      },
      {
        "des": 63,
        "dis": 633.8917,
        "rutDes": [
          3
        ]
      }
    ]
  },
  {
    "nom": "Biblioteca Nacional",
    "lat": 19.3154701,
    "lon": -99.1864241,
    "rut": [
      3,
      10
    ],
    "estDes": [
      {
        "des": 64,
        "dis": 106.352066,
        "rutDes": [
          3,
          10
        ]
      }
    ]
  },
  {
    "nom": "Centro Cultural",
    "lat": 19.3145125,
    "lon": -99.18634210000002,
    "rut": [
      3,
      10
    ],
    "estDes": [
      {
        "des": 65,
        "dis": 347.78824,
        "rutDes": [
          10
        ]
      },
      {
        "des": 66,
        "dis": 337.66324,
        "rutDes": [
          3
        ]
      }
    ]
  },
  {
    "nom": "Posgrado de Economía",
    "lat": 19.311394,
    "lon": -99.1859395,
    "rut": [
      10
    ],
    "estDes": [
      {
        "des": 66,
        "dis": 112.47128,
        "rutDes": [
          10
        ]
      }
    ]
  },
  {
    "nom": "Revalidación de Estudios",
    "lat": 19.3117662,
    "lon": -99.1849437,
    "rut": [
      3,
      10
    ],
    "estDes": [
      {
        "des": 67,
        "dis": 314.04422,
        "rutDes": [
          3,
          10
        ]
      }
    ]
  },
  {
    "nom": "Personal Académico",
    "lat": 19.3107634,
    "lon": -99.1821484,
    "rut": [
      3,
      10
    ],
    "estDes": [
      {
        "des": 68,
        "dis": 210.61707,
        "rutDes": [
          3,
          10
        ]
      }
    ]
  },
  {
    "nom": "Archivo General",
    "lat": 19.3098318,
    "lon": -99.180401,
    "rut": [
      3,
      10
    ],
    "estDes": [
      {
        "des": 69,
        "dis": 199.61438,
        "rutDes": [
          3,
          10
        ]
      }
    ]
  },
  {
    "nom": "Avenida del Imán",
    "lat": 19.3080496,
    "lon": -99.1801115,
    "rut": [
      3,
      10
    ],
    "estDes": [
      {
        "des": 70,
        "dis": 655.7159,
        "rutDes": [
          3,
          10
        ]
      }
    ]
  },
  {
    "nom": "Investigaciones Filológicas I",
    "lat": 19.313972,
    "lon": -99.1799868,
    "rut": [
      3,
      10
    ],
    "estDes": [
      {
        "des": 71,
        "dis": 110.19929,
        "rutDes": [
          3,
          10
        ]
      }
    ]
  },
  {
    "nom": "Investigaciones Filosóficas II",
    "lat": 19.3140851,
    "lon": -99.1810286,
    "rut": [
      3,
      10
    ],
    "estDes": [
      {
        "des": 72,
        "dis": 48.523212,
        "rutDes": [
          3,
          10
        ]
      }
    ]
  },
  {
    "nom": "Coordinación de Humanidades",
    "lat": 19.3141428,
    "lon": -99.1814863,
    "rut": [
      3,
      10
    ],
    "estDes": [
      {
        "des": 73,
        "dis": 294.50226,
        "rutDes": [
          3,
          10
        ]
      }
    ]
  },
  {
    "nom": "UNIVERSUM",
    "lat": 19.3115602,
    "lon": -99.1821593,
    "rut": [
      3,
      10
    ],
    "estDes": [
      {
        "des": 74,
        "dis": 276.78485,
        "rutDes": [
          3,
          10
        ]
      }
    ]
  },
  {
    "nom": "Teatro y Danza",
    "lat": 19.3119926,
    "lon": -99.1847533,
    "rut": [
      3,
      10
    ],
    "estDes": [
      {
        "des": 75,
        "dis": 303.7771,
        "rutDes": [
          3,
          10
        ]
      }
    ]
  },
  {
    "nom": "MUAC",
    "lat": 19.3144898,
    "lon": -99.18595190000002,
    "rut": [
      3,
      10
    ],
    "estDes": [
      {
        "des": 76,
        "dis": 144.99562,
        "rutDes": [
          3,
          10
        ]
      }
    ]
  },
  {
    "nom": "Biblioteca/Hemeroteca",
    "lat": 19.3157922,
    "lon": -99.1860989,
    "rut": [
      3,
      10
    ],
    "estDes": [
      {
        "des": 77,
        "dis": 303.12927,
        "rutDes": [
          3,
          10
        ]
      }
    ]
  },
  {
    "nom": "Espacio Escultórico",
    "lat": 19.3173016,
    "lon": -99.1836922,
    "rut": [
      3,
      10
    ],
    "estDes": [
      {
        "des": 62,
        "dis": 314.99872,
        "rutDes": [
          10
        ]
      },
      {
        "des": 78,
        "dis": 348.3177,
        "rutDes": [
          3
        ]
      }
    ]
  },
  {
    "nom": "Investigaciones Jurídicas II",
    "lat": 19.316825000000005,
    "lon": -99.180416,
    "rut": [
      3
    ],
    "estDes": [
      {
        "des": 79,
        "dis": 441.72882,
        "rutDes": [
          3
        ]
      }
    ]
  },
  {
    "nom": "TV UNAM",
    "lat": 19.317569,
    "lon": -99.1762864,
    "rut": [
      3
    ],
    "estDes": [
      {
        "des": 80,
        "dis": 405.05743,
        "rutDes": [
          3
        ]
      }
    ]
  },
  {
    "nom": "Tienda UNAM II",
    "lat": 19.3212277,
    "lon": -99.1762233,
    "rut": [
      3,
      13
    ],
    "estDes": [
      {
        "des": 1,
        "dis": 360.72015,
        "rutDes": [
          3
        ]
      },
      {
        "des": 86,
        "dis": 722.67395,
        "rutDes": [
          13
        ]
      }
    ]
  },
  {
    "nom": "Servicios Médicos",
    "lat": 19.3301313,
    "lon": -99.1878982,
    "rut": [
      8
    ],
    "estDes": [
      {
        "des": 82,
        "dis": 170.8991,
        "rutDes": [
          8
        ]
      }
    ]
  },
  {
    "nom": "Alberca Olímpica",
    "lat": 19.3303979,
    "lon": -99.1862963,
    "rut": [
      8
    ],
    "estDes": [
      {
        "des": 83,
        "dis": 170.44026,
        "rutDes": [
          8
        ]
      }
    ]
  },
  {
    "nom": "Ingeniería",
    "lat": 19.3305342,
    "lon": -99.1846807,
    "rut": [
      8
    ],
    "estDes": [
      {
        "des": 84,
        "dis": 209.12178,
        "rutDes": [
          8
        ]
      }
    ]
  },
  {
    "nom": "Frontones",
    "lat": 19.330464,
    "lon": -99.182692,
    "rut": [
      8
    ],
    "estDes": [
      {
        "des": 85,
        "dis": 197.44789,
        "rutDes": [
          8
        ]
      }
    ]
  },
  {
    "nom": "IIMAS",
    "lat": 19.3306382,
    "lon": -99.180822,
    "rut": [
      8
    ],
    "estDes": [
      {
        "des": 22,
        "dis": 205.63208,
        "rutDes": [
          8
        ]
      }
    ]
  },
  {
    "nom": "Investigación Científica I",
    "lat": 19.3263431,
    "lon": -99.1804961,
    "rut": [
      6,
      12,
      13
    ],
    "estDes": [
      {
        "des": 21,
        "dis": 273.52454,
        "rutDes": [
          6
        ]
      },
      {
        "des": 87,
        "dis": 217.73337,
        "rutDes": [
          12,
          13
        ]
      }
    ]
  },
  {
    "nom": "Instituto de Materiales I",
    "lat": 19.3266658,
    "lon": -99.1784522,
    "rut": [
      12,
      13
    ],
    "estDes": [
      {
        "des": 88,
        "dis": 97.01103,
        "rutDes": [
          12,
          13
        ]
      }
    ]
  },
  {
    "nom": "Instituto de Química",
    "lat": 19.327051800000003,
    "lon": -99.1776234,
    "rut": [
      12,
      13
    ],
    "estDes": [
      {
        "des": 89,
        "dis": 21.146273,
        "rutDes": [
          12,
          13
        ]
      }
    ]
  },
  {
    "nom": "Investigación Científica II",
    "lat": 19.3272416,
    "lon": -99.1776462,
    "rut": [
      12,
      13
    ],
    "estDes": [
      {
        "des": 90,
        "dis": 94.73333,
        "rutDes": [
          12,
          13
        ]
      }
    ]
  },
  {
    "nom": "Instituto de Materiales II",
    "lat": 19.326776,
    "lon": -99.1784026,
    "rut": [
      12,
      13
    ],
    "estDes": [
      {
        "des": 21,
        "dis": 211.86679,
        "rutDes": [
          12,
          13
        ]
      }
    ]
  }
]